City_ID,City,Lat,Lng,Max Temp,Humidity,Cloudiness,Wind Speed,Country,Date
0,blackmans bay,-43.0167,147.3167,8.74,69,96,1.34,AU,1698174292
1,bodo,67.28,14.405,3.02,77,0,8.23,NO,1698215882
2,adamstown,-25.066,-130.1015,22.48,81,1,4.01,PN,1698155900
3,long beach,33.767,-118.1892,19.93,88,100,1.54,US,1698156282
4,asadabad,34.7824,48.1185,14.97,55,34,2.38,IR,1698202868
5,kamina,-8.7386,24.9906,19.86,87,96,1.3,CD,1698205988
6,isafjordur,66.0755,-23.124,2.67,83,100,1.79,IS,1698224499
7,nemuro,43.3236,145.575,13.8,81,9,3.78,JP,1698180158
8,college,64.8569,-147.8028,-3.03,74,75,0.0,US,1698167520
9,waitangi,-43.9535,-176.5597,12.68,96,100,2.24,NZ,1698251843
10,port mathurin,-19.6833,63.4167,24.83,79,18,6.82,MU,1698196163
11,tianchang,37.9981,114.0156,27.46,13,4,6.5,CN,1698187286
12,puerto natales,-51.7236,-72.4875,6.21,68,71,6.07,CL,1698225922
13,mangai,-4.05,19.5333,21.39,94,99,0.2,CD,1698207541
14,sao tome,0.3365,6.7273,25.42,87,100,0.98,ST,1698210838
15,afaahiti,-17.75,-149.2833,24.93,81,76,6.53,PF,1698160938
16,las tablas,7.7667,-80.2833,24.8,90,100,4.13,PA,1698232101
17,inhambane,-23.865,35.3833,24.85,84,49,7.22,MZ,1698202634
18,pont rouge,48.8833,-72.0825,9.16,91,100,4.32,CA,1698233018
19,edinburgh of the seven seas,-37.0676,-12.3116,10.99,77,73,9.6,SH,1698213117
20,nar'yan-mar,67.6713,53.087,-1.05,90,96,7.15,RU,1698206717
21,port-aux-francais,-49.35,70.2167,4.35,89,100,13.77,TF,1698192049
22,carutapera,-1.195,-46.02,25.15,80,27,3.03,BR,1698223418
23,freetown,8.484,-13.2299,24.57,88,100,4.84,SL,1698216044
24,grand falls-windsor,48.9332,-55.6649,3.61,91,39,2.97,CA,1698229080
25,georgetown,5.4112,100.3354,30.97,70,40,4.63,MY,1698188630
26,margaret river,-33.95,115.0667,24.56,37,13,5.34,AU,1698182823
27,bredasdorp,-34.5322,20.0403,15.63,70,16,1.81,ZA,1698205566
28,itoman,26.1247,127.6694,28.43,65,75,5.66,JP,1698183192
29,sosnovka,56.255,51.2842,-3.52,79,10,3.22,RU,1698204375
30,albany,42.6001,-73.9662,10.37,85,13,1.08,US,1698232827
31,selfoss,63.9331,-20.9971,6.14,80,100,4.02,IS,1698223353
32,rio de janeiro,-22.9028,-43.2075,24.98,83,75,3.6,BR,1698221546
33,olonkinbyen,70.9221,-8.7187,3.0,92,100,3.52,SJ,1698223056
34,cuamba,-14.8031,36.5372,29.22,39,5,3.37,MZ,1698202890
35,badger,64.8,-147.5333,-3.07,74,75,0.0,US,1698167439
36,grytviken,-54.2811,-36.5092,1.83,88,95,4.86,GS,1698216899
37,colonia,50.9333,6.95,10.23,91,0,3.6,DE,1698214275
38,kincardine,56.0667,-3.7167,8.84,94,71,1.69,GB,1698217565
39,crane,31.3974,-102.3501,21.59,82,0,7.54,US,1698238763
40,anadyr,64.75,177.4833,3.28,100,75,7.0,RU,1698175839
41,sinan,34.8262,126.1086,22.06,81,0,2.4,KR,1698184142
42,wailua homesteads,22.0669,-159.378,23.44,80,40,2.57,US,1698165439
43,stanley,54.868,-1.6985,8.2,96,75,4.12,GB,1698216893
44,jamestown,42.097,-79.2353,19.77,57,0,4.63,US,1698234047
45,st. john's,47.5649,-52.7093,5.64,89,40,8.23,CA,1698228216
46,marka,1.7159,44.7717,29.05,71,57,4.66,SO,1698201778
47,opuwo,-18.0607,13.84,25.32,23,7,0.73,NA,1698208151
48,challapata,-18.9,-66.7667,10.32,71,83,1.21,BO,1698227440
49,yellowknife,62.456,-114.3525,-4.77,91,16,1.79,CA,1698245426
50,ushuaia,-54.8,-68.3,4.81,60,20,1.03,AR,1698224428
51,alaghsas,17.0187,8.0168,22.94,16,84,4.63,NE,1698211396
52,west island,-12.1568,96.8225,28.99,70,69,5.14,CC,1698188571
53,juneau,58.3019,-134.4197,1.79,88,20,1.54,US,1698162828
54,alofi,-19.0595,-169.9187,22.94,64,84,5.66,NU,1698165813
55,bamboo flat,11.7,92.7167,30.05,74,75,2.06,IN,1698190781
56,chistopol',55.3631,50.6424,-1.74,70,8,4.8,RU,1698204389
57,papatowai,-46.5619,169.4708,17.6,57,100,3.5,NZ,1698168599
58,ancud,-41.8697,-73.8203,5.63,90,23,1.97,CL,1698227426
59,neijiang,29.5835,105.0622,18.78,78,100,1.31,CN,1698188838
60,pacasmayo,-7.4006,-79.5714,18.87,90,80,2.5,PE,1698231147
61,emporia,38.4039,-96.1817,21.11,88,100,6.17,US,1698237802
62,cockburn town,21.4612,-71.1419,27.95,74,33,10.43,TC,1698230648
63,keflavik,64.0049,-22.5624,6.24,81,100,5.14,IS,1698223749
64,vilyuchinsk,52.9306,158.4028,6.07,73,96,2.29,RU,1698178140
65,kourou,5.1552,-52.6478,25.03,82,59,3.88,GF,1698225334
66,jiagedaqi,50.4167,124.1167,8.84,52,94,3.28,CN,1698186058
67,saipan,15.1355,145.701,28.39,83,75,5.66,MP,1698178243
68,port macquarie,-31.4333,152.9167,23.83,69,46,4.48,AU,1698173934
69,bethel,41.3712,-73.414,12.17,82,0,0.0,US,1698232584
70,toliara,-23.35,43.6667,29.43,60,0,5.47,MG,1698200679
71,melekeok village,7.4957,134.6367,30.31,74,75,2.57,PW,1698180503
72,lihue,21.9789,-159.3672,23.77,80,40,2.57,US,1698165431
73,avarua,-21.2078,-159.775,21.03,64,75,2.57,CK,1698163254
74,katsuren-haebaru,26.3369,127.8719,28.43,60,40,6.69,JP,1698183157
75,praia da vitoria,38.7333,-27.0667,21.14,88,20,5.29,PT,1698221229
76,fauske,67.2588,15.3918,3.02,82,82,3.46,NO,1698215637
77,bals,44.35,24.1,14.4,72,0,1.03,RO,1698209434
78,thompson,55.7435,-97.8558,-2.91,74,75,2.57,CA,1698240139
79,talnakh,69.4865,88.3972,-6.88,94,100,1.51,RU,1698198963
80,invercargill,-46.4,168.35,18.34,55,99,7.15,NZ,1698168886
81,kapoeta,4.7717,33.5903,29.59,48,100,6.77,SS,1698204617
82,brindisi,40.5833,17.6667,22.66,74,100,3.4,IT,1698210639
83,balangiga,11.1097,125.3875,29.84,71,89,1.64,PH,1698182908
84,vorgashor,67.5833,63.95,-13.86,95,21,2.61,RU,1698204070
85,east london,-33.0153,27.9116,19.52,52,0,6.17,ZA,1698203796
86,utrik,11.2278,169.8474,27.8,74,63,4.79,MH,1698172243
87,nova vicosa,-17.8919,-39.3719,23.5,79,66,6.31,BR,1698220926
88,armstrong,-32.7822,-61.6022,12.76,85,61,2.64,AR,1698225281
89,mujiayingzi,42.1167,118.7833,21.27,17,45,7.82,CN,1698186484
90,luganville,-15.5333,167.1667,25.34,84,100,6.92,VU,1698171510
91,verkhotur'ye,58.8627,60.8054,-1.43,56,61,2.17,RU,1698202542
92,ribeira grande,38.5167,-28.7,21.54,88,75,9.26,PT,1698221603
93,port elizabeth,-33.918,25.5701,19.62,62,0,3.6,ZA,1698204288
94,kununurra,-15.7667,128.7333,39.99,21,20,1.54,AU,1698180717
95,coquimbo,-29.9533,-71.3436,11.85,93,75,2.06,CL,1698227826
96,pangai,-19.8,-174.35,24.06,64,75,7.72,TO,1698253195
97,aral,40.5156,81.2636,18.32,17,0,1.17,CN,1698195358
98,kalmunai,7.4167,81.8167,29.59,66,36,2.61,LK,1698193177
99,darwin,-12.4611,130.8418,33.99,45,0,7.72,AU,1698180392
100,ilulissat,69.2167,-51.1,-2.99,68,75,9.26,GL,1698232423
101,willis,30.4249,-95.4799,23.44,92,100,3.6,US,1698237047
102,canico,32.6333,-16.85,22.06,83,40,0.51,PT,1698218317
103,fale old settlement,-9.3852,-171.2468,28.94,76,23,7.2,TK,1698253039
104,constantia,44.1833,28.65,17.61,78,100,7.41,RO,1698208325
105,tommot,58.9564,126.2925,0.62,89,100,2.79,RU,1698186816
106,umea,63.8284,20.2597,-1.04,74,100,2.06,SE,1698213402
107,callao,-12.0667,-77.15,19.84,88,75,3.6,PE,1698230317
108,qaqortoq,60.7167,-46.0333,0.0,52,0,2.36,GL,1698228600
109,bereznik,62.8551,42.7072,-1.12,90,94,2.18,RU,1698207754
110,kodiak,57.79,-152.4072,-1.27,86,0,0.0,US,1698167061
111,kedrovyy,56.1667,91.8167,2.24,93,100,6.24,RU,1698194619
112,weno,7.4515,151.8468,29.97,84,100,4.12,FM,1698176370
113,taikang,46.8333,124.4167,17.91,26,59,6.97,CN,1698185584
114,puerto ayora,-0.7393,-90.3518,23.08,98,98,3.13,EC,1698234080
115,bilibino,68.0546,166.4372,-16.38,99,21,1.98,RU,1698179584
116,hawaiian paradise park,19.5933,-154.9731,25.73,92,40,1.54,US,1698164243
117,amahai,-3.3333,128.9167,28.67,67,42,3.33,ID,1698181329
118,wisconsin rapids,44.3836,-89.8174,16.21,92,100,2.57,US,1698236803
119,iqaluit,63.7506,-68.5145,-0.15,69,100,0.0,CA,1698234733
120,nuuk,64.1835,-51.7216,-1.66,69,100,0.51,GL,1698230812
121,touros,-5.1989,-35.4608,23.68,80,38,3.86,BR,1698220678
122,mount gambier,-37.8333,140.7667,11.72,47,16,6.63,AU,1698176345
123,mata-utu,-13.2816,-176.1745,27.61,80,83,10.05,WF,1698254008
124,trairi,-3.2778,-39.2689,24.24,83,55,3.4,BR,1698221691
125,rio grande,-32.035,-52.0986,15.53,93,18,5.37,BR,1698223059
126,akjoujt,19.6969,-14.4164,26.92,32,0,5.33,MR,1698216929
127,kendari,-3.945,122.4989,32.47,42,29,4.04,ID,1698182838
128,darab,28.7519,54.5444,24.19,38,1,2.3,IR,1698200914
129,sukumo,32.9333,132.7333,22.59,46,0,4.42,JP,1698182417
130,iskateley,67.6803,53.1512,-1.1,90,97,7.15,RU,1698206705
131,silver city,32.7701,-108.2803,8.98,88,75,2.06,US,1698240282
132,pelabuhanratu,-6.9875,106.5514,29.68,67,74,1.24,ID,1698186509
133,meadow lake,34.8014,-106.5436,13.95,54,100,2.29,US,1698240012
134,natal,-5.795,-35.2094,22.36,94,20,1.03,BR,1698220587
135,levuka,50.1834,-105.4011,-7.1,88,98,2.18,CA,1698241178
136,kaoma,-14.7833,24.8,27.87,33,82,1.55,ZM,1698205707
137,matoury,4.8483,-52.3317,24.98,94,40,0.0,GF,1698225242
138,hasaki,35.7333,140.8333,22.94,68,100,4.5,JP,1698180673
139,saint-pierre,-21.3393,55.4781,29.2,61,0,3.6,RE,1698197969
140,tagab,34.855,69.6492,19.3,31,0,1.16,AF,1698197703
141,nova sintra,14.8667,-24.7167,24.25,73,12,7.34,CV,1698219137
142,puerto baquerizo moreno,-0.9,-89.6,23.79,84,96,3.75,EC,1698233891
143,chonchi,-42.6128,-73.8092,6.18,98,17,1.34,CL,1698227349
144,port alfred,-33.5906,26.891,19.54,70,36,2.24,ZA,1698203997
145,idri,27.5,13.2667,23.3,26,18,2.48,LY,1698210746
146,codrington,-38.2667,141.9667,11.91,48,28,9.04,AU,1698176020
147,atafu village,-8.5421,-172.5159,29.3,73,8,6.5,TK,1698253389
148,happy valley-goose bay,53.3168,-60.3315,6.17,65,75,2.06,CA,1698230758
149,zeya,53.75,127.2667,3.05,57,97,4.28,RU,1698185736
150,san antonio de pale,-1.4014,5.6325,25.79,82,96,4.36,GQ,1698211012
151,ishigaki,24.3448,124.1572,28.07,74,40,8.75,JP,1698183929
152,port saint john's,-31.6229,29.5448,19.46,55,0,3.46,ZA,1698203509
153,deir ez-zor,35.3359,40.1408,24.74,34,0,2.63,SY,1698204825
154,longyearbyen,78.2186,15.6401,-4.09,86,75,3.09,SJ,1698225871
155,hamilton,39.1834,-84.5333,18.76,69,75,3.6,US,1698235068
156,gadzhiyevo,69.2551,33.3362,-2.23,93,97,2.0,RU,1698212115
157,thunder bay,48.4001,-89.3168,4.99,87,100,2.06,CA,1698237104
158,'ali al gharbi,32.4633,46.6864,24.95,39,100,4.54,IQ,1698203048
159,charlottetown,46.2352,-63.1267,10.31,88,75,2.68,CA,1698230577
160,lebu,-37.6167,-73.65,8.45,91,4,6.98,CL,1698227778
161,kuta,-8.7233,115.1723,32.97,55,20,5.66,ID,1698184350
162,middelburg,-25.7751,29.4648,21.1,40,0,3.79,ZA,1698203931
163,fiambala,-27.6871,-67.6149,15.16,83,8,1.78,AR,1698227090
164,udachny,66.4167,112.4,-4.75,73,49,6.84,RU,1698192005
165,durango,24.8333,-104.8333,11.99,78,0,2.93,MX,1698238937
166,kasaragod,12.5,75.0,32.26,47,10,1.05,IN,1698195075
167,klyuchi,52.2667,79.1667,10.45,35,100,8.54,RU,1698197093
168,chul'man,56.8479,124.9104,-1.32,95,100,1.19,RU,1698186776
169,nuku'alofa,-21.1333,-175.2,22.19,73,75,6.17,TO,1698253318
170,tiksi,71.6872,128.8694,-18.78,98,19,3.69,RU,1698190350
171,tshabong,-26.05,22.45,24.04,12,0,4.02,BW,1698205596
172,queenstown,-31.8976,26.8753,14.14,60,0,0.08,ZA,1698204129
173,al jahra',29.3375,47.6581,28.64,38,98,2.88,KW,1698202605
174,novokuznetsk,53.7557,87.1099,4.55,80,100,5.76,RU,1698195387
175,huarmey,-10.0681,-78.1522,19.6,90,99,3.2,PE,1698230665
176,aioun,16.6614,-9.6149,28.68,27,99,4.35,MR,1698215609
177,dila,6.4167,38.3167,19.95,87,85,0.37,ET,1698203566
178,caleta de carquin,-11.0925,-77.6267,19.12,91,96,5.08,PE,1698230484
179,labytnangi,66.6572,66.4183,-6.59,92,100,5.71,RU,1698203149
180,kas,36.2018,29.6377,26.05,41,23,0.27,TR,1698207412
181,usogorsk,63.4106,48.6872,-0.74,86,17,3.4,RU,1698206456
182,nantucket,41.2835,-70.0995,14.45,89,20,6.17,US,1698231780
183,essingen,48.8086,10.0277,7.84,95,71,4.02,DE,1698213282
184,hithadhoo,-0.6,73.0833,27.24,81,15,7.36,MV,1698194866
185,ha'il,27.5219,41.6907,23.01,49,0,2.06,SA,1698203922
186,baglung,28.2719,83.5898,24.32,37,0,2.61,NP,1698193909
187,zambezi,-13.5432,23.1047,26.02,50,95,2.6,ZM,1698206182
188,chos malal,-37.3781,-70.2709,12.2,65,0,1.02,AR,1698226989
189,beira,-19.8436,34.8389,29.67,64,0,3.01,MZ,1698203009
190,alo,7.4178,6.7371,23.83,97,99,1.03,NG,1698211197
191,vila franca do campo,37.7167,-25.4333,21.23,89,84,6.41,PT,1698220755
192,el idrissia,34.4454,2.5275,11.68,80,4,3.07,DZ,1698213793
193,susuman,62.7833,148.1667,-13.34,92,96,0.89,RU,1698182374
194,bantay,17.5847,120.3892,30.54,67,80,2.92,PH,1698184451
195,saint-philippe,-21.3585,55.7679,28.77,77,8,2.14,RE,1698197898
196,ambon,-3.6954,128.1814,30.08,70,40,3.6,ID,1698181487
197,borogontsy,62.6683,131.1683,-7.61,88,95,3.38,RU,1698186434
198,dryden,49.7833,-92.7503,1.16,93,100,1.54,CA,1698238090
199,kotlas,61.2611,46.6556,-1.08,79,100,3.13,RU,1698206432
200,xicotencatl,23.0167,-98.8833,23.51,92,48,0.26,MX,1698237399
201,juanjui,-7.1779,-76.7314,23.08,83,84,0.68,PE,1698230478
202,viedma,-40.8135,-62.9967,6.97,81,15,4.19,AR,1698224933
203,flying fish cove,-10.4217,105.6791,28.82,74,40,5.66,CX,1698186538
204,gangadharpur,22.7604,88.2217,29.97,56,41,3.88,IN,1698192464
205,bandipura,34.4167,74.65,18.17,33,0,1.45,IN,1698196470
206,yuzhno-kurilsk,44.0306,145.8556,13.54,69,14,4.23,RU,1698180156
207,petropavlovsk-kamchatsky,53.0452,158.6483,5.25,58,75,3.0,RU,1698178097
208,sur,22.5667,59.5289,31.57,42,52,2.56,OM,1698199341
209,manaquiri,-3.3167,-60.35,28.25,74,41,0.85,BR,1698226748
210,brak,27.5496,14.2714,23.81,26,12,2.72,LY,1698210508
211,nezhinka,51.7676,55.3694,1.09,93,100,7.15,RU,1698202746
212,egilsstadir,65.2653,-14.3948,-5.05,93,0,2.06,IS,1698222146
213,playa vicente,17.8333,-95.8167,24.09,96,96,1.12,MX,1698236366
214,aniva,46.7144,142.5294,16.06,75,14,3.44,RU,1698181220
215,kingston,17.997,-76.7936,27.53,91,20,3.09,JM,1698231809
216,sitka,57.0531,-135.33,1.94,55,0,2.57,US,1698162831
217,pisco,-13.7,-76.2167,18.9,88,20,1.54,PE,1698230003
218,camalu,30.85,-116.0667,18.14,85,41,0.68,MX,1698155574
219,kristiansund,63.1115,7.732,4.36,87,0,2.06,NO,1698216229
220,torre del campo,37.7705,-3.8973,15.47,93,100,3.13,ES,1698215587
221,fort bragg,35.139,-79.006,9.89,93,0,0.0,US,1698233424
222,alice springs,-23.7,133.8833,25.75,19,71,7.72,AU,1698179017
223,port lincoln,-34.7333,135.8667,13.26,46,45,9.76,AU,1698177774
224,roma,43.2128,-75.4557,14.93,72,0,3.6,US,1698233241
225,glennville,31.9366,-81.9285,17.88,82,4,3.1,US,1698233896
226,arraial do cabo,-22.9661,-42.0278,22.51,92,78,7.3,BR,1698221259
227,kuanda,56.3161,116.0806,-0.57,41,100,5.07,RU,1698188811
228,waingapu,-9.6567,120.2641,31.83,48,32,5.29,ID,1698183079
229,tura,25.5198,90.2201,27.06,72,16,1.0,IN,1698192147
230,iquique,-20.2208,-70.1431,18.02,78,87,1.14,CL,1698228171
231,horta,38.5333,-28.6333,21.12,93,75,9.26,PT,1698221589
232,robore,-18.3333,-59.75,24.83,62,77,1.78,BO,1698225789
233,ust-nera,64.5667,143.2,-18.73,100,79,0.95,RU,1698184034
234,sumbe,-11.2061,13.8437,24.24,85,69,0.92,AO,1698208531
235,rameswaram,9.2833,79.3,27.44,76,36,2.5,IN,1698193876
236,ketchikan,55.3422,-131.6461,5.99,60,0,4.63,US,1698161674
237,vail,32.0479,-110.712,16.47,71,84,1.34,US,1698154368
238,calchaqui,-29.8877,-60.287,15.57,87,91,3.66,AR,1698225179
239,mercedes,-34.6515,-59.4307,11.03,90,13,2.88,AR,1698224615
240,banbury,52.0602,-1.3403,8.81,95,97,2.24,GB,1698216411
241,vernon,50.2581,-119.2691,5.34,81,93,1.54,CA,1698158019
242,san patricio,28.017,-97.5169,27.13,81,45,6.66,US,1698237379
243,livingstone,-17.8419,25.8543,31.25,28,4,2.53,ZM,1698205281
244,greenville,35.6127,-77.3663,10.63,99,100,0.0,US,1698233065
245,gebeit,21.0667,36.3167,28.77,36,0,2.92,SD,1698204827
246,cannonvale,-20.2833,148.7,24.66,63,0,4.17,AU,1698175669
247,tazovsky,67.4667,78.7,-6.36,92,66,1.74,RU,1698200478
248,lichinga,-13.3128,35.2406,25.3,44,36,4.5,MZ,1698203283
249,uturoa,-16.7333,-151.4333,26.98,75,79,5.54,PF,1698161511
250,la passe,45.5549,-0.8967,16.1,88,57,10.76,FR,1698215558
251,wuyang,31.9925,116.2472,24.81,45,100,0.72,CN,1698186312
252,mount pearl,47.5166,-52.7813,5.18,89,40,8.23,CA,1698228228
253,glasgow,55.8652,-4.2576,7.12,97,100,1.03,GB,1698217663
254,hermanus,-34.4187,19.2345,15.43,70,32,3.51,ZA,1698205769
255,rongelap,11.1635,166.8941,28.53,78,45,6.5,MH,1698172948
256,sterling,39.0062,-77.4286,12.51,76,0,2.68,US,1698233347
257,nagqu,31.5,92.0,2.68,38,100,4.99,CN,1698192101
258,taneytown,39.6579,-77.1744,13.58,77,0,2.57,US,1698233340
259,puntarenas,9.9763,-84.8384,24.57,94,100,0.32,CR,1698233309
260,tolanaro,-25.0319,46.9987,30.04,62,20,6.17,MG,1698199774
261,puebla de la calzada,38.8793,-6.627,15.95,94,40,1.54,ES,1698216331
262,nelson,-41.2833,173.2833,20.16,55,34,0.45,NZ,1698168237
263,nelson bay,-32.7167,152.15,22.83,76,15,2.68,AU,1698174024
264,paita,-5.0892,-81.1144,20.14,86,65,3.9,PE,1698231639
265,el granada,37.5027,-122.4694,14.4,85,100,4.12,US,1698157583
266,domna,51.8971,113.1573,3.09,23,20,8.0,RU,1698188876
267,la reforma,25.0833,-108.05,22.31,78,0,2.58,MX,1698153291
268,campbell river,50.0163,-125.2446,4.69,83,100,3.6,CA,1698159427
269,greenland,43.0362,-70.8328,12.28,88,40,1.54,US,1698232114
270,retreat,38.8245,-85.8533,16.85,82,97,3.37,US,1698235355
271,morehead city,34.7229,-76.726,17.77,88,75,2.24,US,1698232845
272,mariehamn,60.0973,19.9348,2.12,86,100,2.06,AX,1698212610
273,al kharijah,25.4514,30.5464,24.4,42,0,4.05,EG,1698206470
274,tindouf,27.6711,-8.1474,16.25,55,0,2.06,DZ,1698215898
275,kassala,15.451,36.4,31.78,37,36,3.26,SD,1698204497
276,jiaojiang,28.6803,121.4428,28.33,71,96,2.99,CN,1698184846
277,caraballeda,10.6112,-66.8522,28.26,87,40,0.51,VE,1698229025
278,howrah,22.5892,88.3103,30.0,70,40,4.12,IN,1698192432
279,severo-yeniseyskiy,60.3725,93.0408,-4.12,83,100,4.47,RU,1698195089
280,igarka,67.4667,86.5833,-4.18,91,100,1.5,RU,1698198581
281,hammerfest,70.6634,23.6821,-1.75,64,0,4.12,NO,1698215116
282,sosnogorsk,63.6023,53.8817,-4.7,82,33,3.58,RU,1698205256
283,lumut,4.2323,100.6298,28.01,83,40,1.54,MY,1698188500
284,tchintabaraden,15.8969,5.7985,24.93,13,52,4.23,NE,1698211867
285,cadale,2.7603,46.3222,28.64,74,18,4.81,SO,1698201459
286,nova xavantina,-14.6667,-52.35,27.19,47,98,1.72,BR,1698224223
287,pacific grove,36.6177,-121.9166,14.25,86,100,4.12,US,1698157383
288,realeza,-25.7689,-53.5325,16.69,97,27,0.68,BR,1698223840
289,frankfort,-27.2667,28.4833,17.51,47,0,2.27,ZA,1698204068
290,taroa,8.7058,171.2275,28.33,78,86,5.73,MH,1698171783
291,tofol,5.3248,163.0078,27.88,89,75,1.03,FM,1698173584
292,vadso,70.0744,29.7487,-2.91,80,20,5.66,NO,1698213358
293,karema,-6.8205,30.4389,27.03,58,100,1.67,TZ,1698204781
294,madang,-5.2246,145.7966,28.19,77,79,4.59,PG,1698177182
295,carnarvon,-24.8667,113.6333,24.91,54,0,6.75,AU,1698183801
296,vila do maio,15.1333,-23.2167,26.44,72,2,7.07,CV,1698218791
297,samana,19.2056,-69.3369,25.42,89,65,3.22,DO,1698230086
298,kupang,-10.1667,123.5833,32.32,66,20,7.2,ID,1698182256
299,hadibu,12.65,54.0333,28.13,77,59,5.84,YE,1698200116
300,leava,-14.3,-178.1667,26.81,83,40,10.25,WF,1698254429
301,antsiranana,-12.2787,49.2917,30.42,54,40,3.09,MG,1698199968
302,aasiaat,68.7098,-52.8699,-5.95,69,100,5.31,GL,1698232630
303,turpan,42.9333,89.1667,21.11,27,5,1.59,CN,1698193672
304,kapuskasing,49.4169,-82.4331,6.0,100,100,2.57,CA,1698235567
305,williams lake,52.1415,-122.1445,-4.41,50,0,4.12,CA,1698158943
306,al jawf,29.5,38.75,22.77,47,0,0.12,SA,1698204755
307,ola,59.5833,151.2833,0.25,79,48,3.73,RU,1698180928
308,aquiraz,-3.9014,-38.3911,26.77,82,40,3.26,BR,1698221448
309,punta arenas,-53.15,-70.9167,6.06,70,40,9.26,CL,1698225328
310,benguela,-12.5763,13.4055,24.74,73,76,1.11,AO,1698208562
311,jaru,-10.4389,-62.4664,25.64,70,88,0.95,BR,1698226882
312,zaozersk,69.4005,32.4476,-3.61,97,84,1.53,RU,1698212393
313,murzuq,25.9155,13.9184,22.68,27,3,3.09,LY,1698210491
314,shar'ya,58.3686,45.5144,-0.57,69,20,3.58,RU,1698206126
315,ilheus,-14.7889,-39.0494,21.55,93,57,2.4,BR,1698221025
316,suances,43.4334,-4.0434,17.21,90,75,1.54,ES,1698216108
317,qina,26.1642,32.7267,28.53,27,0,0.74,EG,1698205990
318,ciudad lazaro cardenas,17.9583,-102.2,25.35,86,99,2.77,MX,1698237906
319,lupane,-18.9315,27.807,31.68,28,0,2.23,ZW,1698204750
320,valparaiso,-33.0393,-71.6273,8.8,93,40,2.06,CL,1698227666
321,kone,-21.0595,164.8658,23.49,82,92,3.15,NC,1698171745
322,chui,-33.6971,-53.4616,10.61,90,36,3.81,UY,1698223259
323,haiku-pauwela,20.9219,-156.3051,25.02,84,40,1.54,US,1698164636
324,ta`u,-14.2336,-169.5144,26.58,75,38,9.7,AS,1698165986
325,abu jibeha,11.4562,31.2285,28.28,58,72,1.06,SD,1698205527
326,abadeh,31.1608,52.6506,17.78,31,79,6.81,IR,1698201527
327,tapejara,-28.0681,-52.0139,16.6,96,71,2.24,BR,1698223322
328,kailua-kona,19.6406,-155.9956,26.98,84,75,3.09,US,1698164491
329,anna regina,7.2644,-58.5077,27.06,81,39,2.95,GY,1698226848
330,kiffa,16.6166,-11.4045,30.21,30,99,4.18,MR,1698216036
331,lompoc,34.6391,-120.4579,15.08,87,100,3.58,US,1698156888
332,cam ranh,11.9214,109.1591,30.98,62,20,4.12,VN,1698186846
333,khandyga,62.6667,135.6,-9.94,94,92,1.11,RU,1698185368
334,saldanha,-33.0117,17.9442,17.03,68,33,4.53,ZA,1698206187
335,kerikeri,-35.2268,173.9474,19.95,79,65,3.23,NZ,1698168603
336,mejit,10.2753,170.8646,28.05,79,88,5.62,MH,1698171950
337,tangalle,6.024,80.7911,30.09,69,31,2.64,LK,1698193352
338,fortaleza,-3.7227,-38.5247,26.79,78,20,2.57,BR,1698221489
339,mangrol,21.1167,70.1167,32.43,40,5,1.4,IN,1698196716
340,fortuna,40.5982,-124.1573,11.19,92,40,2.06,US,1698158236
341,fowler,36.6305,-119.6785,18.33,79,0,1.54,US,1698156847
342,lerwick,60.1545,-1.1494,10.0,84,94,4.87,GB,1698217690
343,tralee,52.2704,-9.7026,5.14,100,0,1.03,IE,1698218449
344,baraolt,46.0751,25.6003,16.42,61,100,1.28,RO,1698209245
345,geraldton,-28.7667,114.6,26.23,50,0,10.29,AU,1698183312
346,vilyuysk,63.7553,121.6247,-4.44,95,100,2.24,RU,1698189003
347,belen,36.4891,36.2233,17.08,64,0,0.51,TR,1698205852
348,bairnsdale,-37.8333,147.6167,12.81,59,93,2.68,AU,1698174702
349,atamyrat,37.8357,65.2106,25.09,26,89,6.64,TM,1698198995
350,polazna,58.2946,56.4055,-1.34,75,24,3.72,RU,1698203494
351,i-n-salah,27.1935,2.4607,27.27,26,100,3.61,DZ,1698213321
352,vangaindrano,-23.35,47.6,27.8,70,46,2.13,MG,1698199736
353,cestos city,5.46,-9.5828,24.84,89,100,1.18,LR,1698215013
354,george town,5.4112,100.3354,30.97,70,40,4.63,MY,1698188630
355,hengchun,22.0042,120.7439,27.9,67,72,4.1,TW,1698184612
356,ban su-ngai pa di,6.0724,101.8717,36.55,53,96,1.58,TH,1698188295
357,dumas,35.8656,-101.9732,18.63,55,0,5.66,US,1698238994
358,acapulco de juarez,16.8634,-99.8901,24.01,93,100,10.34,MX,1698237291
359,olavarria,-36.8927,-60.3225,5.7,78,23,1.8,AR,1698224645
360,bhimunipatnam,17.8833,83.4333,30.73,60,35,2.41,IN,1698193339
361,menongue,-14.6585,17.691,21.1,70,85,3.07,AO,1698207419
362,mirabela,-16.2628,-44.1644,23.48,37,49,0.87,BR,1698222169
363,san juan de miraflores,-12.1629,-76.9635,18.98,84,100,3.77,PE,1698230267
364,dingwall,57.5953,-4.4272,6.97,97,61,0.54,GB,1698217993
365,arkhangel'sk,64.5401,40.5433,1.74,74,96,2.03,RU,1698208719
366,kotaparh,19.15,82.35,28.05,52,47,1.75,IN,1698193668
367,taro,-8.3862,115.28,29.0,64,45,2.02,ID,1698184342
368,karoi,-16.8099,29.6925,28.02,37,73,4.34,ZW,1698204419
369,luchegorsk,46.4764,134.2569,15.05,53,5,2.51,RU,1698183183
370,santana,-0.0583,-51.1817,26.1,89,20,2.57,BR,1698224715
371,garachico,28.7781,-17.7646,19.06,64,40,4.12,ES,1698218278
372,zhongshu,24.5167,103.7667,22.06,64,76,3.92,CN,1698188835
373,regina,50.4501,-104.6178,-6.94,82,75,3.6,CA,1698241023
374,kilju,40.9642,129.3278,19.38,43,5,3.53,KP,1698183851
375,mizdah,31.4451,12.9801,24.02,28,98,1.3,LY,1698211072
376,vylkove,45.4021,29.586,18.61,74,100,6.96,UA,1698208220
377,merizo village,13.2658,144.6691,31.1,88,36,2.54,GU,1698178392
378,bila tserkva,49.8094,30.1121,9.77,87,100,7.4,UA,1698208573
379,whitehorse,60.7161,-135.0538,-6.57,62,75,1.54,CA,1698163446
380,antonio enes,-16.2325,39.9086,29.26,53,0,5.61,MZ,1698202001
381,hovd,48.0056,91.6419,9.48,16,24,1.52,MN,1698193584
382,gizo,-8.103,156.8419,28.08,78,89,3.18,SB,1698174384
383,san luis de la loma,17.2706,-100.8939,25.96,84,100,3.76,MX,1698237554
384,svetlyy,54.675,20.1347,8.03,87,100,7.12,RU,1698211617
385,merowe,18.4833,31.8167,31.59,25,0,4.57,SD,1698205763
386,dabakala,8.3667,-4.4333,22.55,91,92,1.45,CI,1698213927
387,firuzabad,28.8438,52.5707,23.76,24,0,1.98,IR,1698201394
388,polyarnyy,69.1989,33.4478,-1.52,92,98,1.86,RU,1698212063
389,tual,-5.6667,132.75,27.35,74,19,4.72,ID,1698180290
390,fada,9.5667,8.3,19.72,64,94,1.04,NG,1698210932
391,aqsay,51.1678,52.995,2.37,65,100,7.43,KZ,1698203240
392,sarykemer,43.0,71.5,20.71,16,50,1.75,KZ,1698197921
393,manicore,-5.8092,-61.3003,24.27,88,77,0.26,BR,1698226846
394,taghazout,30.5426,-9.7112,14.43,75,0,0.31,MA,1698216460
395,sabha,27.0377,14.4283,23.44,26,13,3.44,LY,1698210438
396,enewetak,11.3474,162.3373,28.77,78,96,7.11,MH,1698174052
397,gagliano del capo,39.8442,18.3695,21.68,94,75,3.6,IT,1698210407
398,buka,40.8108,69.1986,21.23,28,39,1.72,UZ,1698198281
399,sao joao da barra,-21.6403,-41.0511,23.5,88,91,1.31,BR,1698221107
400,constitucion,-35.3333,-72.4167,11.11,82,2,3.46,CL,1698227674
401,shamil'kala,42.6858,46.8639,10.57,86,100,1.33,RU,1698203811
402,mili,6.0815,171.735,29.07,74,22,4.79,MH,1698171528
403,nadi,-17.8,177.4167,27.0,74,75,2.57,FJ,1698168924
404,ghat,24.9647,10.1728,24.59,21,2,1.33,LY,1698211333
405,vila velha,-20.3297,-40.2925,23.97,83,0,5.14,BR,1698221004
406,cabedelo,-6.9811,-34.8339,22.37,79,39,3.58,BR,1698220435
407,gamba,-2.65,10.0,24.32,90,100,1.66,GA,1698209900
408,west plains,36.7281,-91.8524,21.64,55,0,3.6,US,1698236629
409,cambria,35.5641,-121.0808,15.41,97,15,0.89,US,1698157104
410,camabatela,-8.1881,15.375,18.15,89,95,0.54,AO,1698208324
411,obo,5.3998,26.4869,21.7,90,96,1.36,CF,1698206353
412,cruzeiro do sul,-29.5128,-51.9853,19.18,82,95,1.19,BR,1698223214
413,meridian,43.6121,-116.3915,16.47,41,100,4.12,US,1698243112
414,takoradi,4.8845,-1.7554,25.08,90,97,3.62,GH,1698213105
415,sulak,43.2734,47.5146,17.85,67,100,3.66,RU,1698203708
416,kuraymah,18.55,31.85,31.68,25,0,4.51,SD,1698205758
417,kenai,60.5544,-151.2583,0.61,83,0,2.06,US,1698167309
418,sinop,41.7711,34.8709,15.24,65,30,3.4,TR,1698206609
419,barra do garcas,-15.89,-52.2567,27.01,60,95,0.92,BR,1698224132
420,tyukhtet,56.5389,89.3011,2.38,94,100,7.42,RU,1698195284
421,copiapo,-27.3667,-70.3333,10.83,51,0,0.56,CL,1698227763
422,sabang,5.8933,95.3214,27.36,74,100,1.57,ID,1698189858
423,victorica,-36.2151,-65.4359,14.57,65,87,1.58,AR,1698225928
424,kulhudhuffushi,6.6221,73.07,28.14,76,78,4.38,MV,1698195236
425,yorkton,51.2167,-102.4677,-6.09,86,100,3.6,CA,1698240602
426,floro,61.5996,5.0328,8.04,81,0,3.6,NO,1698216516
427,tres arroyos,-38.3739,-60.2798,3.99,92,1,1.86,AR,1698224506
428,senillosa,-39.0,-68.4167,9.88,73,0,1.89,AR,1698226401
429,vavuniya,8.7514,80.4971,33.87,47,27,0.44,LK,1698193562
430,christchurch,-43.5333,172.6333,16.08,69,47,7.2,NZ,1698168170
431,sungai penuh,-2.0833,101.3833,24.11,75,98,1.06,ID,1698188000
432,grande prairie,55.1667,-118.8027,-11.9,72,0,1.03,CA,1698245083
433,montoro,38.0241,-4.3834,17.21,94,100,3.26,ES,1698215724
434,lundazi,-12.2929,33.1782,28.22,38,24,3.41,ZM,1698203833
435,northam,51.0333,-4.2167,12.03,90,100,5.3,GB,1698216970
436,laibin,23.7,109.2667,30.99,53,97,1.77,CN,1698187466
437,jining,35.405,116.5814,30.08,21,18,3.7,CN,1698186473
438,sanjwal,33.7608,72.4336,25.84,31,0,1.89,PK,1698196956
439,winnipeg,49.8844,-97.147,1.16,86,100,4.47,CA,1698239159
440,sisimiut,66.9395,-53.6735,-3.66,70,94,5.37,GL,1698232142
441,ar ruways,24.1103,52.7306,30.7,50,70,1.17,AE,1698201064
442,new glasgow,45.5834,-62.6486,9.88,91,34,4.63,CA,1698230395
443,mildura,-34.2,142.15,16.15,38,62,10.96,AU,1698176309
444,mil'kovo,55.6078,37.7956,-0.37,74,8,1.46,RU,1698207514
445,laguna,38.421,-121.4238,17.4,79,0,3.6,US,1698157403
446,soc trang,9.6033,105.98,31.81,60,95,2.33,VN,1698187489
447,belmonte,-15.8631,-38.8828,24.0,86,48,5.84,BR,1698220925
448,berdigestyakh,62.0989,126.6992,-3.33,89,100,2.59,RU,1698187374
449,lucheng,31.2336,117.2806,25.55,41,100,1.05,CN,1698186012
450,geneina,13.45,22.45,24.31,23,7,6.12,SD,1698207739
451,pangody,65.85,74.4859,-3.08,93,100,3.95,RU,1698200944
452,san pablo villa de mitla,16.9167,-96.4,16.59,96,97,1.33,MX,1698236456
453,tubarjal,30.4999,38.216,23.52,46,0,4.1,SA,1698204949
454,ngorongoro,-3.2397,35.4875,14.97,80,100,2.69,TZ,1698203754
455,daru,-9.0763,143.2092,26.24,61,82,4.62,PG,1698177604
456,mount isa,-20.7333,139.5,37.87,10,0,5.66,AU,1698177849
457,mailsi,29.8003,72.1758,32.16,27,0,0.78,PK,1698196748
458,newman,37.3138,-121.0208,15.72,79,22,2.16,US,1698157221
459,nampula,-15.1165,39.2666,29.43,37,37,4.9,MZ,1698202218
460,korla,41.7597,86.1469,16.15,32,3,3.26,CN,1698194292
461,trittau,53.6167,10.4,7.84,98,36,2.68,DE,1698213802
462,novyy urgal,51.0736,132.5642,5.94,60,90,0.05,RU,1698184109
463,ixmiquilpan,20.4833,-99.2333,17.66,90,97,1.83,MX,1698237336
464,el banco,9.0011,-73.9758,24.16,98,72,0.8,CO,1698230651
465,stiens,53.2623,5.7577,9.99,93,14,3.6,NL,1698214868
466,great falls,47.5002,-111.3008,-6.84,96,100,5.66,US,1698242286
467,westport,41.1415,-73.3579,13.79,85,0,2.06,US,1698232550
468,isla mujeres,21.2311,-86.731,28.03,70,52,5.57,MX,1698234377
469,nyrob,60.733,56.7202,-2.35,69,99,3.29,RU,1698203898
470,maintirano,-18.0667,44.0167,29.37,60,5,3.27,MG,1698200911
471,belinskiy,52.9647,43.4165,0.02,64,90,3.78,RU,1698205777
472,plouzane,48.3833,-4.6167,12.03,97,75,4.63,FR,1698216752
473,kavaratti,10.5669,72.642,28.88,68,6,3.6,IN,1698195541
474,luderitz,-26.6481,15.1594,19.92,52,0,5.32,NA,1698207305
475,cabo san lucas,22.8909,-109.9124,23.75,71,10,1.79,MX,1698153610
476,rio gallegos,-51.6226,-69.2181,6.03,56,0,3.6,AR,1698225154
477,nata,8.3333,-80.5167,21.54,92,98,5.5,PA,1698232186
478,belyy yar,53.6039,91.3903,6.94,61,0,5.0,RU,1698194337
479,nchelenge,-9.3451,28.734,26.02,67,73,5.71,ZM,1698205057
480,pionerskiy,54.9508,20.2275,7.91,86,100,10.61,RU,1698211636
481,axim,4.8699,-2.2405,25.54,88,96,3.02,GH,1698213221
482,gisborne,-38.6533,178.0042,19.16,58,34,3.34,NZ,1698167345
483,stephenville,32.2207,-98.2023,23.26,90,100,7.72,US,1698237824
484,gunjur,13.2019,-16.7339,27.73,71,100,5.04,GM,1698217132
485,chikitigarh,19.2,84.6167,30.62,57,9,2.13,IN,1698193127
486,zahedan,29.4963,60.8629,26.95,24,4,8.23,IR,1698199445
487,piton saint-leu,-21.2196,55.3151,27.44,61,0,3.6,RE,1698198015
488,norrtalje,59.758,18.705,4.45,81,59,3.56,SE,1698212837
489,balabac,7.9868,117.0645,29.91,66,61,0.97,PH,1698184746
490,lapeer,43.0514,-83.3188,19.89,56,100,7.47,US,1698235115
491,kearney,40.6995,-99.0815,10.49,90,98,1.79,US,1698238690
492,sandnessjoen,66.0217,12.6316,3.06,87,75,1.54,NO,1698215880
493,namdrik,5.5994,168.1028,29.46,76,100,6.28,MH,1698172375
494,harstad,68.799,16.5293,2.11,97,88,5.81,NO,1698215963
495,xilin hot,43.9667,116.0333,10.48,35,22,5.86,CN,1698187314
496,amasra,41.7463,32.3863,14.03,58,94,2.2,TR,1698207204
497,talara,-4.5772,-81.2719,20.6,86,85,5.64,PE,1698231703
498,port de pollenca,39.9075,3.0814,20.02,69,68,10.09,ES,1698214085
499,nargund,15.7167,75.3833,31.03,28,62,4.86,IN,1698195154
500,midvagur,62.0511,-7.1939,9.46,93,75,6.17,FO,1698219560
501,ha giang,22.8333,104.9833,30.79,56,90,1.45,VN,1698188444
502,bad orb,50.2279,9.3478,8.74,97,92,1.77,DE,1698213612
503,patia,2.069,-77.0527,21.4,94,95,0.6,CO,1698231033
504,bay city,43.5945,-83.8889,21.12,65,0,6.17,US,1698235303
505,pingxiang,27.6167,113.85,29.86,49,40,1.74,CN,1698186602
506,katsuura,35.1333,140.3,20.05,68,100,1.24,JP,1698180757
507,leua,48.2156,18.6071,14.72,91,100,5.9,SK,1698211154
508,malango,-2.9627,119.9001,29.13,52,67,2.65,ID,1698183512
509,cooper's town,26.8667,-77.5167,25.52,62,73,10.54,BS,1698232504
510,palmer,42.1584,-72.3287,11.72,84,0,0.0,US,1698232393
511,ostersund,63.1792,14.6357,0.9,93,75,6.17,SE,1698214586
512,kalymnos,36.95,26.9833,21.74,73,0,0.51,GR,1698208107
513,aldama,22.9167,-98.0667,24.65,95,34,1.11,MX,1698237197
514,manismata,-2.4667,111.0333,34.98,40,81,0.92,ID,1698185665
515,brookings,44.3114,-96.7984,7.0,95,100,3.6,US,1698238473
516,colac,-38.3333,143.5833,8.24,41,56,6.33,AU,1698175626
517,miles city,46.4083,-105.8406,0.54,93,100,5.14,US,1698240857
518,progreso,21.2833,-89.6667,26.17,85,94,5.44,MX,1698235085
519,sola,-13.8833,167.55,26.53,81,100,8.09,VU,1698171508
520,shingu,33.7333,135.9833,19.3,77,1,0.36,JP,1698181693
521,monroe,43.1501,-77.6831,21.37,48,40,4.63,US,1698233771
522,truckee,39.328,-120.1833,14.18,59,0,2.68,US,1698157177
523,chibougamau,49.9168,-74.3659,6.79,100,100,1.54,CA,1698233689
524,malpe,13.35,74.7167,31.61,53,7,0.41,IN,1698195188
525,mandal,25.45,74.5667,30.15,22,0,2.11,IN,1698195901
526,holualoa,19.6228,-155.9522,24.91,82,75,3.09,US,1698164479
527,namibe,-15.1961,12.1522,19.12,78,52,1.76,AO,1698208718
528,punta del este,-34.9667,-54.95,14.06,82,75,9.77,UY,1698223515
529,ca mau,9.1769,105.15,30.99,67,99,2.7,VN,1698187666
530,megion,61.0296,76.1136,-1.99,83,93,1.38,RU,1698199298
531,vorkuta,67.5,64.0,-14.1,95,20,2.5,RU,1698204028
532,santa cruz,-17.8,-63.1667,24.7,83,20,1.03,BO,1698226640
533,al khafji,28.4391,48.4913,28.64,51,42,5.14,SA,1698202348
534,sampit,-2.5333,112.95,32.53,59,74,0.64,ID,1698185201
535,hlusk,52.903,28.6845,6.9,86,100,5.22,BY,1698209309
536,kokshetau,53.2775,69.3883,7.18,65,0,10.0,KZ,1698199579
537,tajiri,34.4043,135.278,23.06,60,20,2.57,JP,1698181910
538,lorengau,-2.0226,147.2712,28.28,78,90,1.55,PG,1698176991
539,port augusta,-32.5,137.7667,17.05,36,51,10.82,AU,1698177489
540,sao vicente,-23.9631,-46.3919,26.26,26,100,2.87,BR,1698222243
541,labuan,5.2767,115.2417,31.2,70,20,2.24,MY,1698185046
542,karlskrona,56.1616,15.5866,7.25,92,100,7.64,SE,1698212940
